,city,latitude,temp,humidity,Wind_Speed,Cloudiness,longitude
0,taywarah,33.35,63.93,29,2.95,0,64.42
1,east london,-33.02,57.2,82,5.82,0,27.91
2,anton lizardo,19.05,77.0,88,2.17,40,-95.98
3,barrow,-38.31,45.21,78,9.22,76,-60.23
4,arraial do cabo,-22.97,73.65,87,19.84,0,-42.02
5,saint-philippe,45.36,56.39,82,3.36,90,-73.48
6,atuona,-9.8,78.69,100,11.01,92,-139.03
7,birpur,26.52,87.6,88,4.18,0,87.01
8,xining,36.62,55.47,64,2.62,24,101.77
9,guerrero negro,27.97,65.82,100,7.76,0,-114.04
10,kapaa,22.08,80.08,97,8.05,40,-159.32
11,georgetown,6.8,77.0,100,5.19,0,-58.16
12,carnarvon,-30.97,46.29,46,2.95,0,22.13
13,mataura,-46.19,45.93,97,5.64,92,168.86
14,avarua,-21.21,75.2,88,3.36,75,-159.78
15,port alfred,-33.59,64.29,87,8.77,20,26.89
16,hilo,19.71,71.46,74,10.29,75,-155.08
17,jambi,-1.6,91.29,66,4.74,0,103.62
18,jingdezhen,29.29,78.06,75,5.75,20,117.2
19,kavieng,-2.57,86.25,98,11.45,44,150.8
20,katsuura,33.93,73.4,73,5.82,75,134.5
21,ushuaia,-54.81,37.4,55,10.22,20,-68.31
22,provideniya,64.42,48.2,70,8.95,75,-173.23
23,rikitea,-23.12,71.31,100,18.61,92,-134.97
24,mount gambier,-37.83,60.42,74,7.43,32,140.78
25,nikolskoye,59.7,48.2,66,20.13,20,30.79
26,shanhetun,44.7,65.37,77,4.18,0,127.2
27,punta arenas,-53.16,33.8,86,10.29,0,-70.91
28,alice springs,-23.7,87.8,5,8.05,0,133.88
29,chicama,-7.84,62.6,88,9.17,75,-79.15
30,yellowknife,62.45,28.4,58,13.87,90,-114.38
31,algodones,35.38,55.06,81,5.82,1,-106.48
32,upernavik,72.79,34.05,100,14.7,88,-56.15
33,khatanga,71.98,36.93,74,23.64,36,102.47
34,la paz,24.15,82.4,74,4.07,40,-110.32
35,gra liyia,35.02,68.0,72,18.34,75,25.68
36,ribeira grande,38.52,74.37,97,19.84,88,-28.7
37,puerto ayora,-0.74,69.42,100,10.45,64,-90.35
38,bredasdorp,-34.53,59.0,72,5.82,36,20.04
39,ponta do sol,-20.63,73.83,38,7.65,48,-46.0
40,irricana,51.32,46.4,81,3.36,90,-113.6
41,tynda,55.15,60.06,51,5.08,20,124.74
42,at-bashi,41.17,56.73,33,2.39,0,75.81
43,namibe,-15.19,65.01,100,7.65,24,12.15
44,aleksandrov gay,50.14,49.71,88,8.43,0,48.57
45,progreso,-34.68,59.0,87,9.17,75,-56.22
46,mecca,21.43,90.57,34,4.07,0,39.83
47,monroe,41.91,50.4,96,5.82,1,-83.4
48,manzanillo,20.34,82.47,100,14.92,0,-77.12
49,diffa,13.32,72.57,75,10.33,0,12.61
50,mareeba,-16.99,84.2,30,14.99,20,145.42
51,aitape,-3.15,83.37,89,7.99,0,142.36
52,butaritari,3.07,84.18,100,8.21,20,172.79
53,oudtshoorn,-33.59,53.6,81,4.7,0,22.2
54,zyryanovsk,49.74,57.54,61,1.95,0,84.27
55,pundaguitan,6.37,86.97,89,8.43,76,126.17
56,kichera,55.93,42.69,85,2.95,88,110.1
57,hermanus,-34.42,56.19,80,8.88,24,19.24
58,beberibe,-4.18,78.8,74,16.11,40,-38.13
59,jamestown,-33.21,67.26,29,10.89,0,138.6
60,zhezkazgan,47.8,60.8,44,13.42,0,67.71
61,qaanaaq,77.48,21.9,100,7.65,80,-69.36
62,codrington,-28.95,69.69,66,5.75,32,153.24
63,elk city,35.41,53.35,82,4.97,1,-99.4
64,taikang,46.86,69.33,49,9.44,0,124.44
65,tiksi,71.64,34.23,90,10.22,0,128.87
66,hobart,-42.88,68.0,32,19.46,0,147.33
67,ahipara,-35.17,55.65,83,9.22,56,173.16
68,raja jang,31.22,86.0,66,3.36,8,74.25
69,cockburn town,21.46,82.38,100,17.27,92,-71.14
70,hauterive,46.09,48.92,62,5.82,0,3.45
71,zemio,5.02,77.07,85,3.74,0,25.13
72,souillac,45.6,56.41,76,9.17,0,-0.6
73,leningradskiy,69.38,40.71,95,14.81,48,178.42
74,anshun,26.25,62.04,88,6.64,92,105.93
75,port elizabeth,39.31,71.26,93,8.05,1,-74.98
76,ekhabi,53.51,60.78,59,11.23,0,142.97
77,mikuni,36.22,66.2,77,13.87,75,136.15
78,bluff,-23.58,86.52,27,4.52,36,149.07
79,busselton,-33.64,62.94,98,13.02,32,115.35
80,macas,-2.3,59.97,84,2.73,12,-78.12
81,necochea,-38.55,46.11,84,8.99,80,-58.74
82,longyearbyen,78.22,24.8,68,16.11,40,15.63
83,pyshchug,58.89,38.91,98,14.03,92,45.71
84,verkhnevilyuysk,63.45,54.93,54,3.62,20,120.31
85,vikersund,59.97,46.2,82,4.18,68,9.99
86,comodoro rivadavia,-45.87,41.0,80,17.6,0,-67.48
87,vaini,15.34,80.85,84,2.39,64,74.49
88,mogadishu,2.04,80.6,78,14.99,20,45.34
89,oussouye,12.49,81.39,100,17.38,8,-16.54
90,jinan,36.65,74.73,60,4.18,0,117.11
91,mar del plata,-46.43,42.42,79,10.22,76,-67.52
92,faanui,-16.48,78.51,100,16.6,0,-151.75
93,esperance,10.24,78.8,94,2.62,20,-61.45
94,kaeo,-35.1,56.28,62,9.44,36,173.78
95,beyneu,45.32,70.14,33,5.19,20,55.19
96,touros,-5.2,76.53,88,13.8,80,-35.46
97,batagay,67.65,35.22,73,5.75,0,134.64
98,cape town,-33.93,57.2,87,9.17,75,18.42
99,fukue,35.03,69.8,77,5.82,75,136.69
100,pangnirtung,66.15,22.71,88,5.41,0,-65.72
101,changping,40.22,66.2,63,4.47,92,116.23
102,mitsamiouli,-11.38,77.0,73,9.17,20,43.28
103,sao joao da barra,-21.64,74.37,98,29.91,0,-41.05
104,dikson,73.51,38.55,99,14.47,88,80.55
105,pisco,-13.71,62.6,82,10.29,90,-76.2
106,oksfjord,70.24,38.39,100,33.33,75,22.35
107,aqtobe,50.28,55.4,76,11.18,40,57.21
108,nizwa,22.93,95.16,22,1.72,0,57.53
109,quelimane,-17.88,75.2,78,13.87,0,36.89
110,zhigansk,66.77,43.5,94,5.97,88,123.37
111,pevek,69.7,44.67,89,14.81,48,170.27
112,saint george,39.45,59.0,44,17.22,75,22.34
113,jardim,-21.48,70.05,89,6.53,24,-56.15
114,cidreira,-30.17,67.26,98,3.51,80,-50.22
115,namatanai,-3.66,84.81,94,14.25,0,152.44
116,ketchikan,55.34,55.0,93,6.93,90,-131.65
117,san quintin,17.54,87.8,70,11.41,20,120.52
118,albany,42.65,58.53,74,4.7,40,-73.75
119,nagtipunan,16.22,83.01,86,2.62,24,121.6
120,kenai,60.55,47.91,77,9.22,1,-151.26
121,lompoc,34.64,56.41,93,4.97,90,-120.46
122,tual,-5.67,81.93,96,14.92,12,132.75
123,severo-kurilsk,50.68,50.34,86,14.92,0,156.12
124,river falls,44.86,52.29,62,10.29,1,-92.63
125,havelock,34.88,77.79,97,8.05,1,-76.9
126,coruche,38.96,70.84,83,6.93,0,-8.53
127,salalah,17.01,77.0,73,5.82,40,54.1
128,qaqortoq,60.72,39.2,55,2.24,92,-46.03
129,dali,25.6,70.59,78,2.39,64,100.24
130,chuy,-33.69,59.97,97,20.18,92,-53.46
131,cap malheureux,-19.98,75.2,64,12.75,40,57.61
132,los llanos de aridane,28.66,71.6,88,8.05,8,-17.92
133,fortuna,38.18,72.5,73,9.17,20,-1.13
134,yar-sale,66.83,49.98,90,21.97,88,70.83
135,emba,34.81,68.0,72,2.24,20,32.42
136,zolotkovo,55.53,38.64,100,27.89,92,41.1
137,calama,-22.46,46.4,10,17.22,0,-68.93
138,killam,52.79,47.19,54,12.24,68,-111.86
139,new norfolk,-42.78,68.0,32,19.46,0,147.06
140,morgan city,29.7,75.58,98,5.86,1,-91.21
141,berlevag,70.86,41.0,86,27.51,75,29.09
142,gat,14.69,77.88,96,10.45,8,-16.54
143,saint-augustin,44.83,57.0,67,8.05,0,-0.61
144,lismore,-28.81,69.69,66,5.75,32,153.28
145,torbay,47.66,48.2,87,16.11,90,-52.73
146,lamar,38.09,59.0,6,16.11,1,-102.62
147,hithadhoo,-0.6,81.84,100,15.59,64,73.08
148,awbari,26.59,69.96,61,7.2,32,12.77
149,gorlice,49.66,50.79,58,7.87,92,21.16
150,norman wells,65.28,30.2,86,3.36,40,-126.83
151,praia,-20.25,69.8,52,5.82,0,-43.81
152,faya,18.39,66.2,32,3.96,0,42.45
153,mildura,-34.18,75.54,33,11.79,0,142.16
154,sangar,63.92,47.91,64,3.51,88,127.47
155,kodiak,39.95,44.06,88,9.78,1,-94.76
156,alofi,-19.06,77.0,69,12.75,68,-169.92
157,padilla,3.23,75.2,69,6.93,75,-76.31
158,bellavista,10.27,78.15,100,5.86,36,-74.82
159,lorengau,-2.02,84.54,100,3.18,0,147.27
160,la ronge,55.1,35.6,93,4.7,75,-105.3
161,carauari,-4.88,80.4,86,2.39,12,-66.9
162,puerto escondido,15.86,81.75,100,3.4,36,-97.07
163,mola di bari,41.06,57.43,45,10.29,20,17.09
164,ballina,54.11,53.85,100,12.91,92,-9.15
165,tilichiki,60.47,39.09,90,13.8,80,166.1
166,axim,4.87,77.88,100,9.1,92,-2.24
167,kavaratti,10.57,83.55,100,8.99,8,72.64
168,hofn,64.25,39.63,100,5.75,0,-15.21
169,madera,36.96,78.04,34,4.7,1,-120.06
170,oranjemund,-28.55,56.19,97,9.44,0,16.43
171,beringovskiy,63.05,45.39,96,23.64,92,179.32
172,kahului,20.89,80.78,94,10.29,40,-156.47
173,chumikan,54.72,61.14,57,9.66,0,135.31
174,sartana,47.17,47.55,63,4.41,8,37.7
175,airai,-8.93,85.89,36,1.61,24,125.41
176,tuktoyaktuk,69.44,30.2,80,23.04,75,-133.03
177,tigil,57.8,48.09,62,9.66,88,158.67
178,chokurdakh,70.62,36.93,97,14.58,80,147.9
179,cacoal,-11.43,75.36,85,2.17,12,-61.44
180,talakan,50.29,64.65,41,3.85,0,130.28
181,kedrovyy,56.17,46.4,93,3.85,75,91.82
182,vila,45.18,45.54,93,5.82,0,8.4
183,sokoto,13.06,73.47,84,4.85,0,5.24
184,high level,58.52,30.2,86,2.24,40,-117.13
185,khasan,42.43,65.1,88,3.96,24,130.64
186,bathsheba,13.22,80.6,83,14.99,75,-59.52
187,cherskiy,68.75,39.81,72,5.19,48,161.3
188,tain,57.81,57.31,93,21.92,40,-4.06
189,bethel,60.79,51.08,68,11.41,40,-161.76
190,mehamn,71.03,41.0,86,27.51,75,27.85
191,viking,53.1,45.12,58,11.68,36,-111.78
192,garowe,8.41,85.44,50,10.67,0,48.48
193,aksarka,66.56,49.44,90,17.05,0,67.8
194,amot,59.57,40.08,88,4.41,76,7.99
195,pangody,65.85,55.38,68,17.83,80,74.49
196,tasiilaq,65.61,35.6,69,2.24,64,-37.64
197,thompson,55.74,35.6,80,4.7,75,-97.86
198,harper,30.3,63.25,79,8.05,90,-99.24
199,yulara,-25.24,91.4,6,9.17,0,130.99
200,bambous virieux,-20.34,75.2,64,12.75,40,57.76
201,bowen,-20.01,82.4,48,14.99,0,148.25
202,san mateo del mar,16.21,80.94,100,10.67,64,-94.98
203,hokitika,-42.72,51.69,94,5.41,32,170.96
204,mumford,5.26,74.37,95,4.63,92,-0.76
205,tautira,-17.73,77.0,61,4.7,20,-149.15
206,narsaq,60.91,39.2,55,2.24,92,-46.05
207,sambava,-14.27,74.64,100,16.6,76,50.17
208,bykovo,49.76,53.04,67,8.43,0,45.39
209,isangel,-19.55,69.87,100,23.87,92,169.27
210,riyadh,24.63,80.6,15,4.07,0,46.72
211,victoria,5.28,89.62,74,3.36,75,115.24
212,staryy nadym,65.61,55.83,67,16.49,48,72.68
213,blythe,33.61,93.92,21,11.41,1,-114.59
214,maldonado,-34.91,57.2,87,8.05,0,-54.96
215,lugovoy,59.72,56.1,95,7.09,92,65.88
216,wanaka,-44.7,44.67,52,1.83,80,169.14
217,klaksvik,62.23,42.8,93,11.41,92,-6.59
218,puerto colombia,10.99,80.6,94,3.36,40,-74.96
219,ozernovskiy,51.5,48.36,85,13.69,92,156.52
220,pacific grove,36.62,56.12,87,1.39,1,-121.92
221,rabo de peixe,37.8,73.4,88,17.22,40,-25.58
222,port-gentil,-0.72,76.89,98,8.43,20,8.78
223,zhoucheng,31.35,79.41,67,7.99,56,119.33
224,padang,-0.92,82.2,100,3.4,24,100.36
225,benemerito de las americas,16.52,69.87,98,2.28,64,-90.64
226,samarai,-10.62,77.79,100,16.93,48,150.67
227,ola,59.58,60.8,55,11.18,20,151.3
228,saskylakh,71.97,32.79,88,13.02,0,114.09
229,izazi,-7.24,72.66,64,3.62,0,35.72
230,mata,22.63,75.2,94,11.79,40,-79.93
231,camacha,33.08,68.77,73,9.17,40,-16.33
232,kota kinabalu,5.98,89.6,70,5.82,75,116.07
233,smithville,39.39,48.81,65,5.82,1,-94.58
234,aklavik,68.22,24.8,85,5.82,20,-135.01
235,calvinia,-31.47,43.77,80,2.73,0,19.78
236,corumba,-19.0,74.64,78,3.18,8,-57.65
237,erenhot,43.65,58.35,39,23.76,80,111.97
238,cabedelo,-6.97,73.4,94,4.7,40,-34.84
239,bonavista,48.65,55.11,85,26.22,36,-53.11
240,ilulissat,69.22,33.8,55,16.11,68,-51.1
241,nkhotakota,-12.93,77.34,67,3.51,0,34.3
242,mahebourg,-20.41,75.2,64,12.75,40,57.7
243,bang saphan,11.21,89.6,62,6.93,75,99.51
244,waipawa,-39.94,47.73,83,4.29,88,176.59
245,khash,28.22,79.23,20,7.09,0,61.21
246,barra patuca,15.8,83.01,93,7.76,100,-84.28
247,kruisfontein,-34.0,60.87,74,6.64,0,24.73
248,singkang,2.1,89.6,66,4.7,75,102.8
249,caravelas,-17.73,76.71,100,13.47,80,-39.27
250,presidente epitacio,-21.76,69.24,95,4.63,0,-52.12
251,charleville,-26.41,87.8,8,12.75,0,146.24
252,maniitsoq,65.42,36.21,99,22.86,92,-52.9
253,santa maria,-29.69,63.57,97,2.95,56,-53.81
254,pedro velho,-6.44,75.2,78,9.17,40,-35.22
255,bubaque,11.28,81.03,100,17.27,48,-15.83
256,twentynine palms,34.14,86.07,21,2.73,1,-116.05
257,christchurch,-43.53,55.4,35,6.93,0,172.64
258,mana,43.52,30.29,100,1.12,0,20.24
259,half moon bay,37.46,61.9,100,2.62,90,-122.43
260,lichtenburg,-26.15,69.69,30,13.91,36,26.16
261,tomatlan,19.93,74.46,93,2.62,64,-105.25
262,pozega,43.85,30.13,75,3.29,0,20.05
263,wewak,-3.55,87.06,63,5.19,8,143.63
264,toktogul,41.87,57.81,37,2.17,44,72.95
265,virginia beach,36.85,76.42,98,6.64,1,-75.98
266,sao filipe,14.9,77.97,98,5.41,56,-24.5
267,fez,34.03,68.0,68,11.41,0,-5.02
268,norwich,52.63,51.53,93,4.7,0,1.29
269,polunochnoye,60.87,52.59,65,8.32,68,60.43
270,rostock,54.09,59.0,93,10.29,75,12.13
271,kalianget,-7.74,88.14,62,3.85,0,113.68
272,montes claros,-16.73,66.72,73,9.78,0,-43.87
273,richards bay,-28.77,68.7,85,4.63,36,32.06
274,sola,62.78,41.0,93,12.75,75,29.36
275,kathu,-27.7,64.47,19,7.31,0,23.05
276,pachino,36.72,70.59,100,31.36,24,15.09
277,nome,30.04,74.35,93,3.62,75,-94.42
278,altos,-5.04,80.6,69,8.05,0,-42.46
279,belaya gora,68.54,34.77,88,11.45,88,146.19
280,sinnamary,5.38,81.39,97,14.7,0,-52.96
281,rocha,-34.48,57.18,96,14.58,92,-54.34
282,saint-pierre,48.95,43.79,93,3.36,0,4.24
283,sitka,37.17,48.09,68,8.66,0,-99.65
284,tabuk,17.41,77.07,91,0.16,32,121.44
285,tessalit,20.2,74.73,25,3.29,68,1.01
286,monkey bay,-14.08,77.79,95,7.09,0,34.91
287,kamenka,53.19,40.26,76,18.84,88,44.05
288,quatre cocos,-20.21,75.2,64,12.75,40,57.76
289,malindi,-3.22,73.74,100,12.91,92,40.12
290,shingu,33.72,69.8,77,3.36,75,135.99
291,anito,12.45,86.25,89,21.3,76,125.29
292,general pico,-35.66,53.94,63,12.35,68,-63.75
293,turukhansk,65.8,47.73,95,15.7,100,87.96
294,ancud,-41.87,45.03,97,7.76,92,-73.83
295,honiara,-9.43,87.8,66,5.82,40,159.96
296,oktyabrskiy,55.61,42.8,87,17.9,75,37.97
297,mosquera,4.71,53.6,93,2.24,75,-74.23
298,gravdal,59.79,48.2,93,5.82,75,5.78
299,coquimbo,-29.95,55.4,87,3.36,90,-71.34
300,watsa,3.04,73.2,93,4.18,32,29.53
301,constitucion,23.99,62.31,48,8.32,24,-104.67
302,verkhoyansk,67.55,33.24,79,4.41,44,133.39
303,ardatov,55.24,38.64,98,21.97,92,43.1
304,moussoro,13.64,75.99,78,2.84,48,16.49
305,havoysund,71.0,37.4,97,33.33,75,24.66
306,chara,39.42,59.0,44,17.22,75,22.43
307,altamont,49.4,46.4,100,13.69,0,-98.5
308,boyuibe,-20.43,73.56,78,11.45,8,-63.28
309,boca do acre,-8.76,78.69,86,2.51,8,-67.39
310,flinders,-34.58,69.8,46,14.99,0,150.85
311,koutiala,12.39,72.21,90,6.2,32,-5.46
312,goure,13.98,71.76,62,3.51,0,10.27
313,port lincoln,-34.72,58.71,91,13.02,92,135.86
314,rawson,-43.3,41.97,72,10.0,88,-65.11
315,paraiso,24.01,62.31,48,8.32,24,-104.61
316,kochevo,42.1,35.6,80,4.7,0,24.92
317,bayir,37.27,68.0,42,8.05,40,28.22
318,chemainus,48.92,54.91,93,8.77,1,-123.72
319,damietta,31.42,75.2,83,6.93,0,31.81
320,colares,38.8,70.84,83,6.93,0,-9.45
321,karratha,-20.74,102.09,8,8.43,0,116.85
322,port blair,11.67,82.83,100,8.66,32,92.75
323,ruwi,23.6,86.0,84,5.82,0,58.55
324,bonthe,7.53,71.67,100,2.17,92,-12.5
325,kambia,9.13,73.47,100,4.97,80,-12.92
326,havre-saint-pierre,50.23,55.4,100,16.11,90,-63.6
327,rehoboth,-23.31,51.69,80,2.17,0,17.08
328,esmeraldas,-19.76,68.45,63,5.82,0,-44.31
329,springdale,36.19,55.49,93,3.36,40,-94.13
330,kununurra,-15.77,95.0,28,4.7,75,128.74
331,winnemucca,40.97,48.02,12,6.93,1,-117.74
332,beira,43.2,62.6,88,5.82,0,-8.36
333,aguimes,27.91,71.6,83,26.4,20,-15.45
334,lodwar,3.12,79.14,59,5.41,8,35.6
335,poronaysk,49.22,58.35,68,4.07,24,143.1
336,kingisepp,59.38,49.44,64,15.93,92,28.61
337,lebu,8.96,69.15,39,4.18,0,38.73
338,naberera,-4.2,67.17,87,4.63,88,36.93
339,jacareacanga,-6.22,74.55,96,2.06,8,-57.76
340,cajabamba,-1.7,35.76,88,0.38,12,-78.77
341,lubyany,56.04,41.0,86,11.18,40,51.4
342,itamaraca,-7.75,74.61,73,9.17,75,-34.83
343,nouakchott,18.08,84.36,86,9.66,24,-15.98
344,santa barbara,34.42,62.01,87,3.36,1,-119.7
345,palauig,15.44,80.22,96,5.3,88,119.9
346,krivosheino,57.34,63.03,70,6.98,0,83.93
347,barra do garcas,-15.89,71.31,81,2.95,0,-52.26
348,voh,-20.95,74.19,85,17.38,24,164.69
349,marshfield,42.09,71.19,100,5.82,90,-70.71
350,waddan,29.16,68.07,88,7.54,92,16.14
351,smithers,54.78,50.0,93,4.7,90,-127.17
352,whitianga,-36.83,58.26,100,13.8,68,175.7
353,stara vyzhivka,51.44,54.93,59,21.07,76,24.44
354,yendi,9.45,70.77,97,3.18,20,0.0
355,cabo san lucas,22.89,80.6,78,2.24,20,-109.91
356,parambu,-6.21,70.14,54,8.77,0,-40.7
357,hasaki,35.73,65.1,88,12.75,75,140.83
358,kisangani,0.52,74.73,95,2.06,64,25.21
359,kalmunai,7.42,86.61,78,3.96,20,81.82
360,tarsus,36.92,69.73,68,1.12,0,34.88
361,sidney,47.72,51.64,76,9.17,90,-104.16
362,leshukonskoye,64.9,42.06,97,11.79,92,45.76
363,hambantota,6.12,81.03,100,12.68,32,81.12
364,varhaug,58.61,48.2,93,4.7,75,5.65
365,willowmore,-33.3,51.96,57,4.63,0,23.49
366,tsumeb,-19.25,74.19,22,4.52,0,17.72
367,derazhnya,49.27,46.47,58,15.26,76,27.43
368,kirakira,-10.46,77.16,100,27.11,92,161.92
369,myitkyina,25.38,83.37,84,2.84,64,97.4
370,marbella,36.51,74.05,78,3.36,20,-4.89
371,raha,10.89,69.33,95,9.78,32,8.13
372,storslett,69.77,39.2,100,20.8,75,21.03
373,ugoofaaru,5.67,83.01,100,13.24,88,73.0
374,stromness,42.87,51.48,93,3.36,90,-79.55
375,ampanihy,-24.69,82.11,38,4.63,0,44.75
376,nuuk,64.17,41.0,100,21.92,92,-51.74
377,port-cartier,50.03,51.8,100,9.17,90,-66.88
378,san jose de guanipa,8.89,72.57,96,2.95,20,-64.17
379,kwekwe,-18.93,70.86,41,7.43,0,29.81
380,bontang,0.12,86.34,87,10.22,0,117.47
381,svirstroy,60.8,44.13,96,14.7,92,33.72
382,tavrichanka,43.33,68.0,49,6.71,40,131.86
383,tura,25.52,83.37,89,2.06,36,90.21
384,tshikapa,-6.42,76.8,86,3.29,0,20.79
385,pervoye maya,40.63,61.23,24,0.27,20,73.68
386,neiafu,-18.65,80.6,69,9.17,40,-173.98
387,nianzishan,47.51,69.69,39,14.03,0,122.88
388,asmar,35.03,79.41,29,2.39,24,71.36
389,palmer,-34.85,60.8,59,10.29,75,139.16
390,kandi,11.13,72.93,94,7.43,8,2.93
391,luanda,-8.83,73.4,83,4.7,75,13.24
392,assiniboia,49.63,45.66,74,14.7,88,-105.99
393,castro,-42.48,44.13,100,8.32,92,-73.76
394,nioro,13.79,75.99,89,8.21,0,-15.05
395,lagoa,37.14,75.2,78,14.99,0,-8.45
396,peniche,39.36,67.71,83,6.93,0,-9.38
397,northam,51.04,44.58,100,2.24,0,-4.21
398,muros,42.77,62.6,77,4.7,0,-9.06
399,margate,-43.03,68.0,32,19.46,0,147.26
400,kouango,4.99,70.95,96,5.3,24,19.98
401,shanghai,31.23,79.74,54,13.42,0,121.49
402,abalak,15.46,78.78,45,7.54,20,6.28
403,tezu,27.93,68.88,94,0.94,92,96.16
404,khandyga,62.65,51.06,64,3.85,48,135.58
405,hornepayne,49.22,42.06,91,5.53,36,-84.78
406,nyurba,63.29,55.47,54,3.62,24,118.35
407,laguna,27.52,77.07,74,1.95,0,-110.01
408,jizan,16.89,89.6,79,6.93,40,42.56
409,husavik,50.56,38.19,100,1.95,88,-96.99
410,mercedes,-33.25,60.24,86,17.27,88,-58.03
411,heidelberg,49.41,41.0,93,2.51,0,8.69
412,rio grande,-32.03,64.11,100,9.22,92,-52.1
413,dunedin,-45.87,44.22,85,5.53,36,170.5
414,hinton,53.4,40.53,98,2.39,92,-117.57
415,sidi ali,36.1,64.11,91,2.62,8,0.42
416,mangalam,12.6,89.6,52,5.82,40,80.07
417,quilmana,-12.95,54.39,91,1.83,0,-76.38
418,matara,-13.74,36.21,92,1.28,48,-72.9
419,hirara,24.8,87.8,70,20.8,75,125.28
420,masterton,-40.95,47.64,75,3.18,48,175.66
421,numan,9.46,72.75,97,10.45,64,12.04
422,mambajao,9.25,84.9,78,13.69,24,124.72
423,preston,53.76,58.1,93,5.82,75,-2.71
424,ulladulla,-35.36,69.8,46,14.99,0,150.48
425,loa janan,-0.58,90.39,61,3.96,8,117.09
426,honningsvag,70.98,41.0,86,27.51,75,25.97
427,salinopolis,-0.61,80.13,98,15.7,100,-47.36
428,nesbyen,60.57,40.8,65,4.18,36,9.1
429,dongying,37.43,73.56,55,4.74,12,118.67
430,vila franca do campo,37.72,73.4,88,17.22,40,-25.43
431,port shepstone,-30.74,68.25,94,18.5,0,30.45
432,porto novo,-23.68,68.0,94,3.18,40,-45.44
433,megion,61.04,60.8,59,8.95,0,76.11
434,grindavik,63.84,38.84,80,12.75,75,-22.43
435,lillesand,58.25,50.0,81,4.7,75,8.38
436,luderitz,-26.65,52.23,87,12.24,0,15.16
437,hede,60.45,44.6,59,11.41,0,15.49
438,jaca,42.57,53.6,93,3.36,24,-0.55
439,roebourne,-20.77,102.09,8,8.43,0,117.15
440,ajaccio,41.93,51.26,76,8.05,0,8.74
441,tahoua,14.89,73.56,68,5.08,12,5.26
442,bilma,18.69,72.84,27,2.95,0,12.92
443,soyo,-6.13,73.11,89,4.18,88,12.37
444,forio,40.73,58.91,51,19.46,0,13.86
445,ternuvate,47.83,39.2,100,4.47,0,36.13
446,suruc,36.98,69.8,60,8.05,0,38.42
447,kemise,10.72,66.27,44,1.72,0,39.87
448,naliya,23.26,90.66,52,10.33,0,68.83
449,korem,12.51,69.33,58,1.39,0,39.52
450,charters towers,-20.07,78.24,58,7.76,32,146.27
451,sorrento,-31.82,67.41,37,10.29,75,115.75
452,port macquarie,-31.43,66.2,59,11.41,64,152.91
453,sapernyy,59.78,48.2,66,20.13,20,30.69
454,fort nelson,58.81,44.6,70,4.7,75,-122.69
455,atar,20.52,68.88,38,5.64,0,-13.05
456,fare,-16.7,77.7,100,14.14,0,-151.02
457,sinfra,6.62,73.29,99,2.51,92,-5.91
458,palmares do sul,-30.26,68.0,88,3.36,40,-50.51
459,teodoro sampaio,-22.53,71.13,84,4.85,24,-52.17
460,ishigaki,24.34,78.8,88,27.51,75,124.16
461,dingle,11.0,85.71,65,13.8,48,122.67
462,auki,12.18,71.31,93,10.45,8,6.51
463,baker city,44.77,49.69,58,3.36,1,-117.83
464,gaya,24.8,87.8,70,9.17,20,85.01
465,knyaze-volkonskoye,48.46,64.4,42,4.47,0,135.46
466,borogontsy,62.67,56.19,56,3.74,24,131.17
467,kailua,21.39,78.76,100,3.36,75,-157.74
468,tongchuan,34.9,60.8,87,2.24,90,108.95
469,kazachinskoye,57.69,50.79,79,3.85,68,93.28
470,ibra,22.69,91.74,33,3.4,0,58.55
471,kita,35.76,62.78,93,1.12,75,139.74
472,isla vista,34.41,59.97,87,3.36,1,-119.86
473,arona,45.76,43.81,93,5.82,0,8.56
474,ostrovnoy,68.05,40.17,100,7.76,92,39.51
475,kamina,-8.74,77.43,82,3.96,76,25.0
476,isabela,10.2,79.59,85,7.99,88,122.99
477,maunabo,18.01,81.48,84,6.93,20,-65.9
478,loandjili,-4.77,77.0,83,8.05,90,11.87
479,farafangana,-22.82,74.73,100,11.34,56,47.83
480,rongcheng,37.16,72.93,67,6.98,12,122.42
481,portland,45.52,68.65,52,9.17,1,-122.67
482,vanimo,-2.67,83.91,100,10.33,0,141.3
483,geraldton,49.72,37.4,93,3.36,75,-86.95
484,rantepao,-2.97,80.13,65,3.62,64,119.9
485,svinninge,55.72,55.4,87,11.41,48,11.46
486,aksu,52.04,68.0,49,4.47,0,76.93
487,tegh,39.56,50.97,91,2.62,68,46.48
488,svetlaya,46.54,56.28,100,5.19,68,138.33
489,onega,63.91,47.01,100,11.9,92,38.09
490,sorland,67.67,39.2,80,10.29,75,12.69
491,akdepe,42.05,64.17,42,4.7,0,59.39
492,vila velha,-3.71,78.8,74,16.11,40,-38.6
493,gangapur,19.7,82.4,69,5.3,40,75.01
494,hovd,63.83,45.54,81,20.8,40,10.7
495,abu kamal,34.45,79.23,34,10.45,0,40.92
496,mahibadhoo,3.78,81.93,100,17.94,80,72.97
497,linhares,-19.38,70.23,92,3.4,48,-40.06
498,lumphat,13.5,83.55,82,2.62,20,106.97
499,seryshevo,51.09,66.99,60,8.66,0,128.38
500,nioaque,-21.16,70.32,88,3.96,8,-55.83
501,amapa,15.09,78.8,88,3.36,40,-87.97
502,port hedland,-20.31,96.8,19,16.11,0,118.58
503,kachiry,53.07,70.23,49,4.18,8,76.1
504,iqaluit,63.75,33.8,69,12.75,75,-68.52
505,hisai,34.67,69.8,77,4.7,75,136.47
506,buta,2.79,80.67,88,2.95,0,24.73
507,olden,61.84,43.66,100,3.36,75,6.81
